{"type":"FeatureCollection","features":[{"geometry":{"coordinates":[4.2781779,52.085616],"crs":{"properties":{"name":"EPSG:4326"},"type":"name"},"type":"Point"},"properties":{"name":"Dudok's plan erased all traces of war (1950)","felt:clipSource":{},"felt:color":"#FF00FF","felt:frame":"none","felt:hasLongDescription":false,"felt:id":"npSLs3WJQbS14D808k1wfC","felt:locked":false,"felt:ordering":1737459386374138,"felt:radiusDisplayAngle":90,"felt:symbol":"dot","felt:type":"Place","felt:widthScale":1},"type":"Feature"},{"geometry":{"coordinates":[4.2781438,52.0854776],"crs":{"properties":{"name":"EPSG:4326"},"type":"name"},"type":"Point"},"properties":{"name":"Plan Dudok was formed to reconstruct the Hague (1949)","felt:clipSource":{},"felt:color":"#FF00FF","felt:frame":"none","felt:hasLongDescription":false,"felt:id":"9AhZ9Ao5osTKy3rAeg6sr6dB","felt:locked":false,"felt:ordering":1737459441108823,"felt:radiusDisplayAngle":90,"felt:symbol":"dot","felt:type":"Place","felt:widthScale":1},"type":"Feature"},{"geometry":{"coordinates":[4.2783805,52.0854623],"crs":{"properties":{"name":"EPSG:4326"},"type":"name"},"type":"Point"},"properties":{"name":"30.000 houses were demolished (1944)","felt:clipSource":{},"felt:color":"#FF00FF","felt:frame":"none","felt:hasLongDescription":false,"felt:id":"q46hwDpWRrqYqIOF6R9Af6D","felt:locked":false,"felt:ordering":1737459754680735,"felt:radiusDisplayAngle":90,"felt:symbol":"dot","felt:type":"Place","felt:widthScale":1},"type":"Feature"},{"geometry":{"coordinates":[4.278212,52.0853722],"crs":{"properties":{"name":"EPSG:4326"},"type":"name"},"type":"Point"},"properties":{"name":"The ditch is 27m wide and 5.5km long (1944)","felt:clipSource":{},"felt:color":"#FF00FF","felt:frame":"none","felt:hasLongDescription":false,"felt:id":"ORLzhrPpQNGBJ8FlgDhooB","felt:locked":false,"felt:ordering":1737459790792127,"felt:radiusDisplayAngle":90,"felt:symbol":"dot","felt:type":"Place","felt:widthScale":1},"type":"Feature"},{"geometry":{"coordinates":[4.2782957,52.0853379],"crs":{"properties":{"name":"EPSG:4326"},"type":"name"},"type":"Point"},"properties":{"name":"Tank ditch, constructed by the German era (1943)","felt:clipSource":{},"felt:color":"#FF00FF","felt:frame":"none","felt:hasLongDescription":false,"felt:id":"edlTJLd6TRGnJUUujiSbEC","felt:locked":false,"felt:ordering":1737459836698608,"felt:radiusDisplayAngle":90,"felt:symbol":"dot","felt:type":"Place","felt:widthScale":1},"type":"Feature"}]}